     3.02           OBSERVATION DATA    M: Mixed            RINEX VERSION / TYPE
RTKCONV 2.4.3 b29   SINOGNSS            20250325 095412 UTC PGM / RUN BY / DATE 
log: D:\sinodata\AI\RTKlib-AI\data\k803\base1.24O           COMMENT             
format: RINEX                                               COMMENT             
rtkconv-2.4.3    FILE CONVERSION     20220401 131200 UTC    COMMENT             
0008                                                        MARKER NAME         
                                                            MARKER NUMBER       
                                                            MARKER TYPE         
                                                            OBSERVER / AGENCY   
09097550            SINOGNSS K803       609A7-1.001         REC # / TYPE / VERS 
                    NONE                                    ANT # / TYPE        
 -2831682.2116  4658825.8419  3299194.4493                  APPROX POSITION XYZ 
        0.0000        0.0000        0.0000                  ANTENNA: DELTA H/E/N
G    6 C1C L1C S1C C2X L2X S2X                              SYS / # / OBS TYPES 
R    6 C1C L1C S1C C2P L2P S2P                              SYS / # / OBS TYPES 
C    6 C1I L1I S1I C6I L6I S6I                              SYS / # / OBS TYPES 
  2024     6    26    12    26   43.0000000     GPS         TIME OF FIRST OBS   
  2024     6    26    12    29    4.0000000     GPS         TIME OF LAST OBS    
G                                                           SYS / PHASE SHIFT   
R                                                           SYS / PHASE SHIFT   
C                                                           SYS / PHASE SHIFT   
  3 R01  1 R09 -2 R17  4                                    GLONASS SLOT / FRQ #
 C1C    0.000 C1P    0.000 C2C    0.000 C2P    0.000        GLONASS COD/PHS/BIS 
                                                            END OF HEADER       
> 2024  6 26 12 26 43.0000000  0 32                     
G10  20500040.520   107728511.624          50.000    20500043.147    83944344.663          47.000  
G12  21663456.063   113842473.665          45.000    21663458.297    88708546.088          43.000  
G15  24981040.775   131276442.604          34.000    24981046.957   102293446.363          34.000  
G18  25280564.357   132850271.578          33.000    25280572.667   103519724.128          34.000  
G23  20415172.811   107282577.827          46.000    20415174.365    83596881.480          48.000  
G24  23162850.409   121721836.468          40.000    23162855.358    94848320.090          40.000  
G25  20974857.074   110223859.164          46.000    20974861.809    85888865.447          44.000  
G28  22557749.700   118541973.778          43.000    22557752.970    92370476.002          43.000  
G32  22143537.350   116365221.543          47.000    22143541.227    90674293.269          44.000  
R 5  21874915.633   116934231.951          47.000                                                  
R 6  19961106.499   106516296.353          40.000                                                  
R 7  22580640.759   120875970.090          49.000                                                  
R 9  20378801.576   108821843.716          50.000                                                  
R15  23080986.678   123338078.552          44.000                                                  
R16  19518622.191   104265243.946          52.000    19518627.463    81093755.951          27.000  
R22  23661418.360   126306239.364          42.000                                                  
C 1  37067356.608   193019471.156          45.000    37067358.198   156844164.800          41.000  
C 2  37740748.933   196525935.994          41.000    37740748.433   159693523.486          39.000  
C 3  36779575.743   191520898.743          46.000    36779575.135   155626446.082          42.000  
C 4  38412232.901   200022552.384          41.000    38412232.776   162534816.406          37.000  
C 5  40178595.881   209220508.339          37.000    40178597.883   170008864.514          35.000  
C 6  36407856.179   189585381.341          45.000    36407853.266   154053683.939          44.000  
C 8  36019369.842   187562377.786          47.000    36019365.554   152409757.291          45.000  
C 9  37562427.485   195597511.018          44.000    37562425.519   158939011.588          42.000  
C13  35803273.243   186437119.978          49.000    35803276.174   151495401.736          46.000  
C14  25062684.215   130508096.423          37.000    25062681.785   106048571.662          38.000  
C16  36837673.315   191823700.802          48.000    36837674.012   155872536.778          43.000  
C23  22906195.541   119278648.145          49.000    22906191.020    96923680.339          48.000  
C24  25056736.636   130477240.965          41.000    25056739.728   106025501.947          40.000  
C25  21670474.908   112844081.034          51.000    21670474.926    91696763.205          49.000  
C32  25012355.433   130245943.191          44.000    25012359.704   105835536.118          42.000  
C33  23482424.929   122279423.581          48.000    23482439.689    99364182.209          46.000  
> 2024  6 26 12 26 44.0000000  0 32                     
G10  20499823.590   107727371.673          50.000    20499826.289    83943456.394          47.000  
G12  21663402.117   113842190.614          45.000    21663404.100    88708325.520          43.000  
G15  24981570.877   131279227.806          34.000    24981577.078   102295616.586          34.000  
G18  25281163.131   132853418.114          33.000    25281171.368   103522176.017          34.000  
G23  20415472.045   107284150.562          46.000    20415473.582    83598106.988          49.000  
G24  23163456.508   121725021.398          40.000    23163462.566    94850801.847          40.000  
G25  20974458.952   110221768.026          46.000    20974463.973    85887235.968          44.000  
G28  22557317.610   118539703.275          43.000    22557320.504    92368706.781          44.000  
G32  22143217.816   116363541.794          47.000    22143221.229    90672984.363          44.000  
R 5  21875300.478   116936290.074          47.000                                                  
R 6  19960854.188   106514950.917          40.000                                                  
R 7  22580062.392   120872874.684          49.000                                                  
R 9  20378237.826   108818833.130          50.000                                                  
R15  23081734.318   123342073.310          43.000                                                  
R16  19518836.637   104266389.420          53.000    19518841.462    81094646.821          27.000  
R22  23661702.478   126307755.657          42.000                                                  
C 1  37067366.972   193019524.444          44.000    37067368.437   156844208.081          41.000  
C 2  37740754.669   196525965.523          41.000    37740754.276   159693547.499          39.000  
C 3  36779585.964   191520950.998          46.000    36779585.195   155626488.541          42.000  
C 4  38412242.908   200022603.619          41.000    38412242.264   162534858.024          37.000  
C 5  40178596.953   209220512.538          36.000    40178598.597   170008867.917          35.000  
C 6  36407872.618   189585467.344          45.000    36407869.813   154053753.814          44.000  
C 8  36019506.272   187563089.216          46.000    36019502.073   152410335.379          45.000  
C 9  37562430.254   195597526.142          44.000    37562428.432   158939023.872          43.000  
C13  35803357.120   186437556.577          49.000    35803359.926   151495756.508          46.000  
C14  25063155.171   130510549.687          37.000    25063152.813   106050565.173          37.000  
C16  36837707.695   191823879.941          48.000    36837708.267   155872682.346          43.000  
C23  22905782.856   119276499.212          48.000    22905778.317    96921934.162          48.000  
C24  25057301.369   130480181.458          41.000    25057304.389   106027891.331          40.000  
C25  21670628.600   112844882.174          51.000    21670628.832    91697414.199          49.000  
C32  25011841.073   130243265.389          44.000    25011845.451   105833360.182          41.000  
C33  23482754.273   122281138.815          48.000    23482769.087    99365575.967          46.000  
> 2024  6 26 12 26 45.0000000  0 32                     
G10  20499605.624   107726226.317          50.000    20499608.197    83942563.911          47.000  
G12  21663347.438   113841902.245          45.000    21663348.438    88708100.817          43.000  
G15  24982099.693   131282007.113          34.000    24982105.322   102297782.305          33.000  
G18  25281760.599   132856558.405          33.000    25281768.354   103524623.020          34.000  
G23  20415770.279   107285717.927          46.000    20415771.977    83599328.286          49.000  
G24  23164061.589   121728200.400          40.000    23164066.449    94853278.985          40.000  
G25  20974060.008   110219671.445          46.000    20974064.547    85885602.284          44.000  
G28  22556884.625   118537427.120          43.000    22556887.449    92366933.163          43.000  
G32  22142897.067   116361856.118          47.000    22142900.444    90671670.872          44.000  
R 5  21875684.359   116938342.498          47.000                                                  
R 6  19960601.020   106513599.703          40.000                                                  
R 7  22579483.078   120869773.157          49.000                                                  
R 9  20377672.986   108815817.057          50.000                                                  
R15  23082480.850   123346062.234          43.000                                                  
R16  19519050.047   104267529.658          53.000    19519054.246    81095533.715          28.000  
R22  23661985.470   126309266.444          42.000                                                  
C 1  37067375.996   193019571.783          44.000    37067377.568   156844246.560          41.000  
C 2  37740759.244   196525989.160          41.000    37740758.833   159693566.699          39.000  
C 3  36779594.809   191520997.313          46.000    36779594.166   155626526.171          42.000  
C 4  38412251.753   200022648.922          41.000    38412251.092   162534894.820          37.000  
C 5  40178597.114   209220510.793          36.000    40178598.383   170008866.499          35.000  
C 6  36407888.093   189585547.459          45.000    36407885.216   154053818.904          44.000  
C 8  36019641.898   187563794.903          46.000    36019637.645   152410908.802          45.000  
C 9  37562431.898   195597535.409          44.000    37562430.201   158939031.410          42.000  
C13  35803439.729   186437987.427          48.000    35803442.695   151496106.607          45.000  
C14  25063625.073   130512997.277          37.000    25063622.822   106052554.000          37.000  
C16  36837741.056   191824053.198          47.000    36837741.521   155872823.122          43.000  
C23  22905368.974   119274344.736          48.000    22905364.614    96920183.464          48.000  
C24  25057865.154   130483116.161          41.000    25057868.121   106030276.002          39.000  
C25  21670781.469   112845677.871          50.000    21670781.594    91698060.766          48.000  
C32  25011325.874   130240581.679          44.000    25011329.984   105831179.452          41.000  
C33  23483082.652   122282848.439          48.000    23483097.430    99366965.181          46.000  
> 2024  6 26 12 26 46.0000000  0 32                     
G10  20499387.890   107725082.624          50.000    20499390.803    83941672.724          47.000  
G12  21663292.687   113841615.617          45.000    21663294.706    88707877.491          43.000  
G15  24982628.759   131284787.529          34.000    24982634.388   102299948.880          33.000  
G18  25282358.336   132859699.653          33.000    25282365.787   103527070.728          34.000  
G23  20416068.656   107287286.936          46.000    20416070.211    83600550.904          48.000  
G24  23164666.741   121731380.547          40.000    23164671.780    94855757.026          40.000  
G25  20973661.333   110217576.492          46.000    20973666.497    85883969.865          44.000  
G28  22556451.534   118535152.377          43.000    22556454.786    92365160.652          43.000  
G32  22142576.443   116360171.598          47.000    22142579.909    90670358.229          44.000  
R 5  21876068.578   116940396.414          47.000                                                  
R 6  19960347.977   106512249.967          40.000                                                  
R 7  22578903.747   120866672.664          49.000                                                  
R 9  20377108.415   108812802.675          50.000                                                  
R15  23083227.329   123350052.469          43.000                                                  
R16  19519263.832   104268671.835          53.000    19519267.263    81096422.042          28.000  
R22  23662269.015   126310778.882          42.000                                                  
C 1  37067385.520   193019620.191          45.000    37067386.717   156844285.881          41.000  
C 2  37740763.675   196526013.844          41.000    37740763.443   159693586.764          39.000  
C 3  36779603.779   191521044.701          46.000    36779603.243   155626564.690          42.000  
C 4  38412260.580   200022695.298          42.000    38412260.044   162534932.525          37.000  
C 5  40178596.060   209220510.124          36.000    40178598.169   170008865.979          35.000  
C 6  36407903.817   189585628.688          45.000    36407900.744   154053884.916          44.000  
C 8  36019777.649   187564501.847          46.000    36019773.450   152411483.261          45.000  
C 9  37562433.900   195597545.778          44.000    37562432.184   158939039.831          42.000  
C13  35803522.891   186438419.563          49.000    35803525.643   151496457.746          45.000  
C14  25064095.815   130515446.095          37.000    25064093.081   106054543.915          37.000  
C16  36837774.596   191824227.548          48.000    36837775.079   155872964.791          43.000  
C23  22904955.717   119272191.703          48.000    22904951.160    96918433.960          48.000  
C24  25058428.976   130486052.037          41.000    25058431.960   106032661.662          40.000  
C25  21670934.661   112846475.089          50.000    21670934.696    91698708.571          49.000  
C32  25010810.781   130237899.041          44.000    25010814.998   105828999.585          41.000  
C33  23483411.407   122284559.436          49.000    23483425.934    99368355.502          46.000  
> 2024  6 26 12 26 47.0000000  0 32                     
G10  20499172.818   107723952.254          50.000    20499175.624    83940791.905          47.000  
G12  21663240.849   113841342.411          45.000    21663242.689    88707664.590          43.000  
G15  24983160.219   131287580.828          34.000    24983165.473   102302125.496          33.000  
G18  25282958.789   132862853.381          33.000    25282965.561   103529528.201          34.000  
G23  20416369.857   107288869.293          46.000    20416371.483    83601783.914          48.000  
G24  23165274.091   121734573.470          40.000    23165279.845    94858245.014          40.000  
G25  20973265.373   110215494.824          46.000    20973269.983    85882347.770          44.000  
G28  22556021.230   118532890.668          43.000    22556023.678    92363398.264          43.000  
G32  22142258.196   116358499.860          47.000    22142262.002    90669055.601          44.000  
R 5  21876455.371   116942463.668          47.000                                                  
R 6  19960097.632   106510913.506          40.000                                                  
R 7  22578327.131   120863585.118          49.000                                                  
R 9  20376546.577   108809801.848          50.000                                                  
R15  23083976.952   123354055.895          43.000                                                  
R16  19519480.244   104269827.790          53.000    19519482.853    81097321.174          27.000  
R22  23662554.687   126312304.868          42.000                                                  
C 1  37067397.188   193019681.237          44.000    37067398.546   156844335.481          41.000  
C 2  37740770.966   196526051.171          41.000    37740770.680   159693617.084          39.000  
C 3  36779615.305   191521104.712          46.000    36779614.822   155626613.462          43.000  
C 4  38412271.677   200022754.271          41.000    38412271.444   162534980.464          38.000  
C 5  40178597.704   209220522.098          37.000    40178600.277   170008875.735          36.000  
C 6  36407921.740   189585722.571          45.000    36407918.881   154053961.211          44.000  
C 8  36019915.938   187565221.628          46.000    36019911.720   152412068.137          45.000  
C 9  37562438.367   195597568.839          44.000    37562436.526   158939058.580          42.000  
C13  35803608.270   186438864.492          49.000    35803611.218   151496819.290          45.000  
C14  25064568.593   130517907.803          37.000    25064565.984   106056544.233          38.000  
C16  36837810.531   191824414.541          48.000    36837810.996   155873116.752          43.000  
C23  22904544.729   119270051.693          48.000    22904540.190    96916695.020          48.000  
C24  25058995.263   130489000.709          41.000    25058998.050   106035057.690          40.000  
C25  21671090.193   112847285.398          50.000    21671090.318    91699367.016          49.000  
C32  25010297.922   130235229.050          44.000    25010302.247   105826830.000          41.000  
C33  23483742.412   122286283.372          48.000    23483757.047    99369756.346          46.000  
> 2024  6 26 12 26 48.0000000  0 32                     
G10  20498955.513   107722809.850          50.000    20498958.301    83939901.713          47.000  
G12  21663186.527   113841057.245          45.000    21663188.153    88707442.387          43.000  
G15  24983689.411   131290361.570          34.000    24983694.521   102304292.240          33.000  
G18  25283556.686   132865994.326          33.000    25283562.922   103531975.705          34.000  
G23  20416668.859   107290439.628          46.000    20416669.967    83603007.554          48.000  
G24  23165879.708   121737753.843          40.000    23165884.533    94860723.236          40.000  
G25  20972866.983   110213401.071          46.000    20972871.325    85880716.272          44.000  
G28  22555588.496   118530616.670          43.000    22555590.676    92361626.324          44.000  
G32  22141937.750   116356815.578          47.000    22141941.414    90667743.173          44.000  
R 5  21876839.787   116944518.477          47.000                                                  
R 6  19959844.767   106509564.575          40.000                                                  
R 7  22577748.211   120860484.643          49.000                                                  
R 9  20375982.309   108806788.766          50.000                                                  
R15  23084723.913   123358046.751          44.000                                                  
R16  19519694.422   104270971.733          53.000    19519697.835    81098210.905          27.000  
R22  23662838.340   126313818.589          42.000                                                  
C 1  37067406.587   193019729.741          45.000    37067407.910   156844374.900          41.000  
C 2  37740776.041   196526075.977          41.000    37740775.487   159693637.248          39.000  
C 3  36779624.507   191521152.204          46.000    36779623.953   155626652.056          42.000  
C 4  38412280.558   200022800.772          41.000    38412280.397   162535018.205          37.000  
C 5  40178597.775   209220521.563          36.000    40178599.759   170008875.272          35.000  
C 6  36407937.429   189585803.980          45.000    36407934.552   154054027.360          44.000  
C 8  36020051.688   187565929.088          46.000    36020047.632   152412643.017          45.000  
C 9  37562440.672   195597579.453          44.000    37562438.617   158939067.197          42.000  
C13  35803691.325   186439297.093          48.000    35803694.184   151497170.811          45.000  
C14  25065038.817   130520357.158          37.000    25065036.476   106058534.542          38.000  
C16  36837844.035   191824589.048          48.000    36837844.554   155873258.551          43.000  
C23  22904131.258   119267899.530          48.000    22904127.005    96914946.213          48.000  
C24  25059558.959   130491936.974          40.000    25059562.086   106037443.639          40.000  
C25  21671243.384   112848083.671          50.000    21671243.598    91700015.669          48.000  
C32  25009782.669   130232546.546          44.000    25009787.101   105824650.263          42.000  
C33  23484071.077   122287995.116          48.000    23484085.801    99371147.281          46.000  
> 2024  6 26 12 26 49.0000000  0 32                     
G10  20498736.761   107721659.878          50.000    20498739.941    83939005.635          47.000  
G12  21663130.811   113840764.598          45.000    21663133.099    88707214.366          43.000  
G15  24984217.047   131293134.219          34.000    24984222.997   102306452.787          33.000  
G18  25284152.618   132869126.835          33.000    25284159.140   103534416.669          33.000  
G23  20416966.200   107292002.418          46.000    20416967.879    83604225.308          48.000  
G24  23166483.324   121740926.099          40.000    23166487.863    94863195.114          40.000  
G25  20972467.235   110211299.730          46.000    20972472.113    85879078.896          44.000  
G28  22555154.404   118528334.840          43.000    22555156.512    92359848.284          44.000  
G32  22141615.751   116355123.196          47.000    22141619.771    90666424.435          44.000  
R 5  21877222.667   116946565.351          47.000                                                  
R 6  19959590.509   106508207.675          40.000                                                  
R 7  22577167.217   120857375.807          49.000                                                  
R 9  20375416.576   108803767.996          50.000                                                  
R15  23085469.409   123362029.570          44.000                                                  
R16  19519907.153   104272108.207          52.000    19519909.190    81099094.799          27.000  
R22  23663120.671   126315324.600          42.000                                                  
C 1  37067414.396   193019770.183          45.000    37067415.665   156844407.755          41.000  
C 2  37740779.257   196526092.720          41.000    37740778.417   159693650.851          39.000  
C 3  36779632.209   191521191.631          46.000    36779631.548   155626684.082          42.000  
C 4  38412288.098   200022839.166          41.000    38412287.884   162535049.425          37.000  
C 5  40178595.846   209220512.933          36.000    40178598.026   170008868.283          35.000  
C 6  36407951.438   189585877.363          45.000    36407948.651   154054086.998          44.000  
C 8  36020185.974   187566628.684          46.000    36020182.061   152413211.493          45.000  
C 9  37562440.994   195597582.032          44.000    37562439.064   158939069.290          43.000  
C13  35803772.968   186439721.831          49.000    35803775.738   151497515.946          46.000  
C14  25065507.807   130522798.675          37.000    25065505.180   106060518.484          37.000  
C16  36837876.057   191824755.518          48.000    36837876.503   155873393.824          43.000  
C23  22903716.625   119265739.672          48.000    22903712.140    96913191.156          48.000  
C24  25060121.244   130494865.321          41.000    25060124.389   106039823.166          40.000  
C25  21671395.360   112848874.326          50.000    21671395.485    91700658.150          49.000  
C32  25009266.040   130229855.976          44.000    25009270.329   105822463.967          41.000  
C33  23484398.384   122289699.100          48.000    23484413.055    99372531.897          46.000  
> 2024  6 26 12 26 50.0000000  0 32                     
G10  20498520.492   107720523.307          50.000    20498523.547    83938120.001          47.000  
G12  21663077.526   113840485.476          45.000    21663079.313    88706996.880          43.000  
G15  24984747.042   131295919.899          34.000    24984753.082   102308623.417          33.000  
G18  25284751.123   132872272.115          32.000    25284758.449   103536867.500          33.000  
G23  20417266.042   107293578.628          46.000    20417267.847    83605453.517          48.000  
G24  23167089.370   121744111.267          40.000    23167094.462    94865677.054          40.000  
G25  20972069.685   110209211.782          45.000    20972074.438    85877451.896          44.000  
G28  22554722.706   118526066.168          43.000    22554725.529    92358080.485          43.000  
G32  22141295.984   116353443.711          47.000    22141299.576    90665115.768          44.000  
R 5  21877608.191   116948625.665          47.000                                                  
R 6  19959338.860   106506864.179          40.000                                                  
R 7  22576588.743   120854279.971          49.000                                                  
R 9  20374853.433   108800760.899          50.000                                                  
R15  23086217.156   123366025.668          44.000                                                  
R16  19520122.510   104273258.551          52.000    19520125.280    81099989.506          29.000  
R22  23663405.289   126316844.216          42.000                                                  
C 1  37067424.510   193019823.340          44.000    37067425.832   156844450.968          41.000  
C 2  37740784.707   196526122.156          41.000    37740784.153   159693674.779          38.000  
C 3  36779642.108   191521243.773          46.000    36779641.304   155626726.428          42.000  
C 4  38412297.926   200022890.267          41.000    38412297.623   162535090.958          37.000  
C 5  40178597.293   209220517.027          36.000    40178599.241   170008871.636          35.000  
C 6  36407967.914   189585963.495          45.000    36407965.162   154054156.991          44.000  
C 8  36020322.833   187567341.195          46.000    36020318.884   152413790.460          45.000  
C 9  37562443.853   195597597.388          44.000    37562442.155   158939081.759          43.000  
C13  35803856.881   186440159.465          49.000    35803859.830   151497871.571          45.000  
C14  25065978.727   130525253.113          37.000    25065976.476   106062512.906          37.000  
C16  36837910.419   191824934.747          48.000    36837910.991   155873539.450          43.000  
C23  22903304.333   119263592.925          48.000    22903299.812    96911446.746          48.000  
C24  25060686.119   130497806.520          41.000    25060689.353   106042213.131          39.000  
C25  21671549.730   112849678.168          50.000    21671549.748    91701311.335          48.000  
C32  25008751.805   130227178.145          44.000    25008756.058   105820288.000          41.000  
C33  23484728.085   122291416.110          48.000    23484742.702    99373927.118          46.000  
> 2024  6 26 12 26 51.0000000  0 32                     
G10  20498303.187   107719382.109          50.000    20498306.189    83937230.769          47.000  
G12  21663023.669   113840201.797          45.000    21663025.366    88706775.795          43.000  
G15  24985276.341   131298700.351          34.000    24985281.701   102310790.026          33.000  
G18  25285348.485   132875411.869          32.000    25285355.954   103539314.086          33.000  
G23  20417565.062   107295150.224          46.000    20417566.617    83606678.151          48.000  
G24  23167694.593   121747291.253          40.000    23167700.133    94868154.951          40.000  
G25  20971671.474   110207119.151          45.000    20971676.352    85875821.285          44.000  
G28  22554290.079   118523792.602          43.000    22554292.402    92356308.886          44.000  
G32  22140975.504   116351759.083          47.000    22140979.363    90663803.052          44.000  
R 5  21877992.786   116950681.023          47.000                                                  
R 6  19959085.941   106505515.715          40.000                                                  
R 7  22576009.680   120851178.764          49.000                                                  
R 9  20374289.469   108797749.096          50.000                                                  
R15  23086963.992   123370016.684          43.000                                                  
R16  19520336.956   104274404.433          53.000    19520341.245    81100880.701          27.000  
R22  23663688.906   126318359.114          42.000                                                  
C 1  37067433.963   193019871.338          44.000    37067435.160   156844489.959          41.000  
C 2  37740789.264   196526146.427          41.000    37740788.781   159693694.492          39.000  
C 3  36779651.043   191521290.728          46.000    36779650.364   155626764.594          42.000  
C 4  38412306.754   200022936.210          41.000    38412306.396   162535128.319          37.000  
C 5  40178596.703   209220515.928          37.000    40178598.919   170008870.729          35.000  
C 6  36407983.656   189586044.502          45.000    36407980.779   154054222.800          44.000  
C 8  36020458.691   187568048.735          46.000    36020454.742   152414365.394          45.000  
C 9  37562445.979   195597607.617          44.000    37562444.103   158939090.078          42.000  
C13  35803939.919   186440592.107          48.000    35803942.939   151498223.123          45.000  
C14  25066449.379   130527702.573          37.000    25066446.913   106064503.270          37.000  
C16  36837943.762   191825108.815          48.000    36837944.281   155873680.914          43.000  
C23  22902891.183   119261441.380          48.000    22902886.734    96909698.443          48.000  
C24  25061250.083   130500742.663          41.000    25061253.175   106044598.994          40.000  
C25  21671703.118   112850477.311          50.000    21671703.225    91701960.702          48.000  
C32  25008236.320   130224495.153          44.000    25008240.912   105818107.845          41.000  
C33  23485056.804   122293128.267          48.000    23485071.582    99375318.376          46.000  
> 2024  6 26 12 26 52.0000000  0 32                     
G10  20498086.310   107718242.648          50.000    20498089.366    83936342.875          47.000  
G12  21662970.062   113839919.949          45.000    21662972.135    88706556.189          43.000  
G15  24985805.693   131301482.088          34.000    24985810.857   102312957.613          33.000  
G18  25285945.953   132878552.612          32.000    25285953.458   103541761.480          34.000  
G23  20417864.457   107296723.564          46.000    20417866.477    83607904.126          48.000  
G24  23168299.603   121750472.444          40.000    23168306.107    94870633.799          40.000  
G25  20971273.549   110205028.215          46.000    20971278.284    85874191.980          44.000  
G28  22553857.541   118521520.511          43.000    22553860.365    92354538.417          43.000  
G32  22140655.255   116350075.666          47.000    22140659.293    90662491.306          44.000  
R 5  21878377.470   116952737.927          47.000                                                  
R 6  19958833.738   106504168.769          40.000                                                  
R 7  22575430.420   120848078.656          49.000                                                  
R 9  20373725.666   108794739.073          50.000                                                  
R15  23087710.845   123374009.103          43.000                                                  
R16  19520551.795   104275552.307          52.000    19520555.530    81101773.558          28.000  
R22  23663972.952   126319875.749          42.000                                                  
C 1  37067443.201   193019920.459          45.000    37067444.595   156844529.867          41.000  
C 2  37740794.356   196526171.873          41.000    37740793.677   159693715.168          39.000  
C 3  36779660.388   191521338.831          46.000    36779659.620   155626803.685          42.000  
C 4  38412315.867   200022983.298          41.000    38412315.277   162535166.566          37.000  
C 5  40178596.614   209220516.001          37.000    40178598.883   170008870.747          36.000  
C 6  36407999.363   189586126.673          45.000    36407996.486   154054289.568          44.000  
C 8  36020594.907   187568757.620          47.000    36020590.797   152414941.417          45.000  
C 9  37562448.266   195597619.062          44.000    37562446.283   158939099.383          42.000  
C13  35804023.313   186441026.098          49.000    35804026.226   151498575.771          45.000  
C14  25066919.496   130530153.395          37.000    25066917.494   106066494.779          37.000  
C16  36837977.499   191825284.063          48.000    36837977.964   155873823.325          43.000  
C23  22902478.320   119259291.354          48.000    22902473.781    96907951.367          48.000  
C24  25061814.155   130503680.105          41.000    25061817.246   106046985.888          40.000  
C25  21671857.006   112851278.053          51.000    21671857.042    91702611.375          49.000  
C32  25007721.388   130221813.307          44.000    25007725.820   105815928.646          41.000  
C33  23485386.005   122294841.883          48.000    23485400.693    99376710.832          46.000  
> 2024  6 26 12 26 53.0000000  0 32                     
G10  20497872.150   107717116.832          50.000    20497875.563    83935465.611          47.000  
G12  21662919.224   113839651.840          45.000    21662920.940    88706347.262          43.000  
G15  24986337.546   131304276.968          34.000    24986343.586   102315135.425          34.000  
G18  25286546.156   132881706.211          32.000    25286553.160   103544218.796          34.000  
G23  20418166.408   107298310.578          46.000    20418168.177    83609140.767          48.000  
G24  23168907.900   121753666.735          40.000    23168912.600    94873122.892          40.000  
G25  20970878.393   110202950.896          46.000    20970883.325    85872573.292          44.000  
G28  22553427.809   118519261.784          43.000    22553430.490    92352778.374          43.000  
G32  22140337.597   116348405.363          47.000    22140341.171    90661189.767          44.000  
R 5  21878764.889   116954808.503          47.000                                                  
R 6  19958583.840   106502835.457          40.000                                                  
R 7  22574853.804   120844991.788          49.000                                                  
R 9  20373164.489   108791742.925          50.000                                                  
R15  23088460.379   123378015.024          43.000                                                  
R16  19520769.279   104276714.288          53.000    19520771.995    81102677.295          28.000  
R22  23664259.696   126321406.228          42.000                                                  
C 1  37067454.887   193019982.534          45.000    37067456.317   156844580.308          41.000  
C 2  37740801.611   196526210.244          41.000    37740801.218   159693746.348          39.000  
C 3  36779672.271   191521399.880          46.000    36779671.378   155626853.301          42.000  
C 4  38412327.178   200023043.326          41.000    38412327.017   162535215.339          37.000  
C 5  40178599.419   209220529.007          37.000    40178601.421   170008881.361          35.000  
C 6  36408017.679   189586221.838          45.000    36408014.838   154054366.900          44.000  
C 8  36020733.588   187569479.643          47.000    36020729.425   152415528.124          45.000  
C 9  37562453.216   195597643.488          44.000    37562451.018   158939119.223          43.000  
C13  35804109.263   186441473.202          49.000    35804112.069   151498939.090          46.000  
C14  25067393.132   130532617.370          37.000    25067390.880   106068496.976          37.000  
C16  36838013.523   191825472.289          48.000    36838014.131   155873976.259          43.000  
C23  22902067.815   119257154.656          49.000    22902063.437    96906215.140          48.000  
C24  25062380.799   130506630.639          40.000    25062383.819   106049383.436          40.000  
C25  21672013.253   112852092.206          51.000    21672013.306    91703272.936          49.000  
C32  25007208.726   130219144.423          44.000    25007213.211   105813759.943          41.000  
C33  23485717.583   122296568.751          48.000    23485732.307    99378114.056          46.000  
> 2024  6 26 12 26 54.0000000  0 32                     
G10  20497655.631   107715978.293          50.000    20497658.472    83934578.442          47.000  
G12  21662865.921   113839371.087          45.000    21662867.797    88706128.486          43.000  
G15  24986867.059   131307058.622          35.000    24986873.099   102317302.983          33.000  
G18  25287143.446   132884846.288          32.000    25287150.504   103546665.641          34.000  
G23  20418466.125   107299884.881          46.000    20418467.769    83610367.476          48.000  
G24  23169513.088   121756847.800          40.000    23169518.127    94875601.628          40.000  
G25  20970480.539   110200860.820          45.000    20970485.614    85870944.655          44.000  
G28  22552995.611   118516990.093          43.000    22552998.238    92351008.250          43.000  
G32  22140017.170   116346721.829          47.000    22140020.440    90659877.913          44.000  
R 5  21879149.716   116956865.891          47.000                                                  
R 6  19958331.583   106501488.942          40.000                                                  
R 7  22574274.830   120841891.304          49.000                                                  
R 9  20372601.132   108788733.830          50.000                                                  
R15  23089207.519   123382007.703          44.000                                                  
R16  19520984.405   104277863.549          53.000    19520986.406    81103571.160          28.000  
R22  23664544.135   126322923.757          42.000                                                  
C 1  37067464.501   193020031.408          45.000    37067465.859   156844620.034          41.000  
C 2  37740806.311   196526235.387          41.000    37740806.025   159693766.791          39.000  
C 3  36779681.134   191521447.739          46.000    36779680.669   155626892.193          42.000  
C 4  38412336.595   200023090.165          41.000    38412335.701   162535253.378          38.000  
C 5  40178599.294   209220528.842          37.000    40178601.707   170008881.196          35.000  
C 6  36408033.368   189586303.861          45.000    36408030.598   154054433.555          44.000  
C 8  36020869.697   187570188.671          46.000    36020865.551   152416104.293          45.000  
C 9  37562455.164   195597654.776          44.000    37562453.144   158939128.398          43.000  
C13  35804192.515   186441907.327          49.000    35804195.517   151499291.859          46.000  
C14  25067863.266   130535068.340          37.000    25067861.425   106070488.591          37.000  
C16  36838047.063   191825647.354          48.000    36838047.850   155874118.514          43.000  
C23  22901654.879   119255005.159          48.000    22901650.734    96904468.485          48.000  
C24  25062944.817   130509568.096          40.000    25062947.980   106051770.363          40.000  
C25  21672167.141   112852893.634          51.000    21672167.194    91703924.167          49.000  
C32  25006693.758   130216462.364          44.000    25006698.172   105811580.543          41.000  
C33  23486046.694   122298282.745          48.000    23486061.490    99379506.815          46.000  
> 2024  6 26 12 26 55.0000000  0 32                     
G10  20497437.290   107714831.281          50.000    20497440.256    83933684.656          47.000  
G12  21662810.795   113839081.950          45.000    21662812.528    88705903.201          43.000  
G15  24987394.606   131309831.312          35.000    24987400.717   102319463.529          34.000  
G18  25287739.235   132887977.136          32.000    25287746.883   103549105.222          34.000  
G23  20418763.930   107301450.723          46.000    20418765.896    83611587.626          48.000  
G24  23170116.793   121760019.836          40.000    23170122.047    94878073.340          40.000  
G25  20970081.113   110198762.232          45.000    20970086.313    85869309.414          44.000  
G28  22552561.483   118514709.651          43.000    22552564.592    92349231.271          44.000  
G32  22139695.045   116345029.286          47.000    22139698.762    90658559.055          44.000  
R 5  21879532.774   116958914.447          47.000                                                  
R 6  19958077.521   106500133.587          40.000                                                  
R 7  22573693.765   120838781.562          49.000                                                  
R 9  20372035.899   108785716.137          50.000                                                  
R15  23089953.015   123385991.379          44.000                                                  
R16  19521197.993   104279004.428          52.000    19521201.853    81104458.522          27.000  
R22  23664826.716   126324432.654          42.000                                                  
C 1  37067472.131   193020071.312          45.000    37067473.632   156844652.451          41.000  
C 2  37740809.188   196526251.618          41.000    37740809.080   159693779.968          39.000  
C 3  36779688.532   191521486.624          46.000    36779687.889   155626923.793          42.000  
C 4  38412343.635   200023128.015          41.000    38412342.992   162535284.151          37.000  
C 5  40178597.150   209220519.694          37.000    40178600.116   170008873.758          35.000  
C 6  36408047.359   189586376.936          45.000    36408044.554   154054492.929          44.000  
C 8  36021004.232   187570888.953          47.000    36021000.069   152416673.323          45.000  
C 9  37562455.432   195597657.166          44.000    37562453.609   158939130.326          42.000  
C13  35804274.320   186442332.673          49.000    35804277.161   151499637.476          45.000  
C14  25068332.310   130537510.609          37.000    25068330.451   106072473.112          37.000  
C16  36838079.120   191825813.467          48.000    36838079.692   155874253.489          43.000  
C23  22901240.568   119252847.060          49.000    22901236.226    96902714.860          48.000  
C24  25063507.138   130512496.716          40.000    25063510.408   106054150.092          40.000  
C25  21672319.438   112853686.558          51.000    21672319.546    91704568.482          49.000  
C32  25006177.058   130213771.335          44.000    25006181.418   105809393.880          42.000  
C33  23486374.251   122299988.084          48.000    23486388.993    99380892.537          46.000  
> 2024  6 26 12 26 56.0000000  0 32                     
G10  20497221.950   107713699.881          50.000    20497224.791    83932803.048          47.000  
G12  21662758.796   113838808.524          45.000    21662760.941    88705690.128          43.000  
G15  24987924.994   131312619.103          35.000    24987930.838   102321635.818          34.000  
G18  25288337.776   132891122.780          32.000    25288345.620   103551556.425          34.000  
G23  20419064.916   107303032.194          46.000    20419066.828    83612819.943          48.000  
G24  23170723.143   121763207.005          40.000    23170728.253    94880556.839          41.000  
G25  20969684.832   110196679.220          46.000    20969689.103    85867686.276          44.000  
G28  22552130.286   118512444.585          43.000    22552133.627    92347466.273          43.000  
G32  22139375.779   116343351.850          47.000    22139379.728    90657251.978          44.000  
R 5  21879918.960   116960978.667          47.000                                                  
R 6  19957826.390   106498793.830          40.000                                                  
R 7  22573115.541   120835687.096          49.000                                                  
R 9  20371473.758   108782714.300          50.000                                                  
R15  23090701.619   123389990.568          43.000                                                  
R16  19521414.566   104280161.428          52.000    19521418.497    81105358.367          29.000  
R22  23665112.263   126325957.406          42.000                                                  
C 1  37067482.584   193020126.109          44.000    37067483.960   156844696.971          41.000  
C 2  37740815.281   196526282.702          41.000    37740814.959   159693805.231          39.000  
C 3  36779698.878   191521540.386          45.000    36779698.324   155626967.500          42.000  
C 4  38412353.803   200023180.745          41.000    38412353.052   162535327.005          37.000  
C 5  40178599.098   209220525.413          36.000    40178600.849   170008878.427          35.000  
C 6  36408064.406   189586464.943          45.000    36408061.458   154054564.444          44.000  
C 8  36021141.556   187571604.294          46.000    36021137.410   152417254.588          45.000  
C 9  37562458.845   195597674.487          44.000    37562456.915   158939144.423          43.000  
C13  35804359.001   186442773.122          48.000    35804361.645   151499995.369          46.000  
C14  25068804.570   130539967.955          37.000    25068802.319   106074469.907          37.000  
C16  36838113.983   191825994.513          48.000    36838114.519   155874400.612          43.000  
C23  22900829.241   119250704.245          48.000    22900824.702    96900973.643          48.000  
C24  25064072.549   130515440.370          41.000    25064075.855   106056542.045          40.000  
C25  21672474.774   112854494.848          50.000    21672474.720    91705225.282          49.000  
C32  25005663.466   130211095.229          44.000    25005667.505   105807219.311          41.000  
C33  23486704.703   122301708.638          48.000    23486719.356    99382290.633          46.000  
> 2024  6 26 12 26 57.0000000  0 32                     
G10  20497006.896   107712570.365          50.000    20497009.720    83931922.921          47.000  
G12  21662707.048   113838537.058          45.000    21662708.477    88705478.605          43.000  
G15  24988455.615   131315408.334          35.000    24988461.905   102323809.277          33.000  
G18  25288936.638   132894269.580          32.000    25288944.465   103554008.489          34.000  
G23  20419366.385   107304615.558          46.000    20419368.279    83614053.738          48.000  
G24  23171330.296   121766395.480          40.000    23171335.353    94883041.335          40.000  
G25  20969288.801   110194598.068          46.000    20969293.179    85866064.615          44.000  
G28  22551699.875   118510181.116          43.000    22551701.965    92345702.547          43.000  
G32  22139056.907   116341675.784          47.000    22139060.141    90655945.925          44.000  
R 5  21880305.449   116963044.580          47.000                                                  
R 6  19957575.848   106497455.736          40.000                                                  
R 7  22572537.854   120832593.855          49.000                                                  
R 9  20370911.991   108779714.365          50.000                                                  
R15  23091450.028   123393991.309          43.000                                                  
R16  19521631.585   104281320.545          52.000    19521635.462    81106260.004          27.000  
R22  23665398.310   126327484.030          42.000                                                  
C 1  37067493.306   193020182.194          45.000    37067494.789   156844742.552          41.000  
C 2  37740821.571   196526315.115          41.000    37740821.517   159693831.562          38.000  
C 3  36779709.510   191521595.450          46.000    36779709.063   155627012.223          42.000  
C 4  38412364.113   200023234.777          42.000    38412363.702   162535370.932          37.000  
C 5  40178600.581   209220532.436          37.000    40178602.350   170008884.104          35.000  
C 6  36408081.275   189586554.264          45.000    36408078.737   154054637.027          44.000  
C 8  36021279.201   187572321.126          47.000    36021275.127   152417837.069          45.000  
C 9  37562462.526   195597693.149          44.000    37562460.417   158939159.587          43.000  
C13  35804443.718   186443215.036          49.000    35804446.577   151500354.466          45.000  
C14  25069276.706   130542426.784          38.000    25069274.436   106076467.912          37.000  
C16  36838149.042   191826176.868          48.000    36838149.435   155874548.792          43.000  
C23  22900417.950   119248563.090          49.000    22900413.554    96899233.781          48.000  
C24  25064638.032   130518385.433          41.000    25064641.445   106058935.153          40.000  
C25  21672630.234   112855304.887          51.000    21672630.288    91705883.507          49.000  
C32  25005149.428   130208420.396          44.000    25005153.913   105805045.806          41.000  
C33  23487035.227   122303430.781          48.000    23487050.004    99383690.015          46.000  
> 2024  6 26 12 26 58.0000000  0 32                     
G10  20496789.198   107711426.010          50.000    20496791.860    83931031.218          47.000  
G12  21662652.476   113838250.861          45.000    21662654.316    88705255.604          43.000  
G15  24988983.359   131318182.242          35.000    24988989.524   102325970.711          33.000  
G18  25289532.427   132897400.695          32.000    25289539.217   103556448.335          34.000  
G23  20419664.708   107306184.120          46.000    20419666.227    83615275.983          48.000  
G24  23171933.840   121769568.605          40.000    23171939.433    94885513.932          40.000  
G25  20968890.071   110192502.050          45.000    20968894.521    85864431.350          44.000  
G28  22551266.354   118507902.569          43.000    22551269.285    92343927.047          43.000  
G32  22138735.068   116339984.368          47.000    22138738.641    90654627.957          44.000  
R 5  21880689.204   116965095.219          47.000                                                  
R 6  19957322.054   106496102.296          40.000                                                  
R 7  22571957.271   120829484.860          49.000                                                  
R 9  20370347.438   108776699.401          50.000                                                  
R15  23092195.738   123397976.647          43.000                                                  
R16  19521845.817   104282464.828          52.000    19521850.087    81107149.946          27.000  
R22  23665681.302   126328995.569          42.000                                                  
C 1  37067501.204   193020223.001          45.000    37067502.455   156844775.719          41.000  
C 2  37740825.180   196526332.245          41.000    37740824.823   159693845.498          38.000  
C 3  36779717.051   191521635.255          46.000    36779716.568   155627044.563          42.000  
C 4  38412371.654   200023273.546          41.000    38412371.082   162535402.400          37.000  
C 5  40178598.454   209220524.195          36.000    40178600.545   170008877.448          35.000  
C 6  36408095.534   189586628.362          45.000    36408092.890   154054697.241          44.000  
C 8  36021414.041   187573022.894          46.000    36021409.931   152418407.322          45.000  
C 9  37562463.115   195597696.615          44.000    37562461.168   158939162.404          42.000  
C13  35804525.772   186443641.871          49.000    35804528.524   151500701.304          45.000  
C14  25069746.339   130544870.566          37.000    25069743.820   106078453.672          37.000  
C16  36838181.170   191826343.998          48.000    36838181.492   155874684.597          43.000  
C23  22900003.978   119246407.050          48.000    22899999.529    96897481.834          48.000  
C24  25065200.692   130521315.400          40.000    25065204.141   106061315.984          40.000  
C25  21672782.871   112856100.121          51.000    21672782.961    91706529.703          48.000  
C32  25004632.727   130205730.323          44.000    25004637.409   105802859.895          42.000  
C33  23487363.087   122305137.980          48.000    23487377.990    99385077.245          46.000  
> 2024  6 26 12 26 59.0000000  0 32                     
G10  20496572.500   107710287.711          50.000    20496575.949    83930144.218          47.000  
G12  21662598.976   113837970.783          45.000    21662601.692    88705037.361          43.000  
G15  24989512.300   131320961.652          34.000    24989518.554   102328136.501          34.000  
G18  25290129.217   132900537.065          32.000    25290135.971   103558892.276          34.000  
G23  20419964.175   107307758.733          46.000    20419966.498    83616502.945          48.000  
G24  23172538.671   121772747.235          40.000    23172543.532    94887990.768          41.000  
G25  20968492.343   110190412.033          46.000    20968496.953    85862802.747          44.000  
G28  22550833.656   118505629.783          43.000    22550837.051    92342156.054          43.000  
G32  22138414.140   116338298.451          47.000    22138417.624    90653314.266          44.000  
R 5  21881073.852   116967151.778          47.000                                                  
R 6  19957069.547   106494754.753          40.000                                                  
R 7  22571377.118   120826381.354          49.000                                                  
R 9  20369783.884   108773690.592          50.000                                                  
R15  23092942.449   123401967.771          43.000                                                  
R16  19522061.174   104283615.506          52.000    19522065.838    81108044.860          28.000  
R22  23665965.455   126330513.220          42.000                                                  
C 1  37067510.120   193020269.197          45.000    37067511.335   156844813.242          41.000  
C 2  37740829.326   196526354.771          41.000    37740829.147   159693863.796          39.000  
C 3  36779725.664   191521680.450          46.000    36779725.163   155627081.300          43.000  
C 4  38412380.052   200023317.695          41.000    38412379.570   162535438.300          37.000  
C 5  40178597.490   209220521.386          36.000    40178599.938   170008875.135          35.000  
C 6  36408111.009   189586707.890          45.000    36408107.953   154054761.861          44.000  
C 8  36021549.827   187573730.259          47.000    36021545.771   152418982.097          45.000  
C 9  37562464.867   195597705.519          44.000    37562462.919   158939169.641          43.000  
C13  35804608.846   186444074.291          49.000    35804611.579   151501052.683          46.000  
C14  25070216.634   130547319.921          37.000    25070214.311   106080443.970          37.000  
C16  36838214.246   191826516.548          48.000    36838214.657   155874824.815          43.000  
C23  22899591.150   119244256.799          49.000    22899586.576    96895734.572          48.000  
C24  25065764.728   130524250.865          41.000    25065767.694   106063701.283          40.000  
C25  21672936.849   112856901.221          51.000    21672936.813    91707180.660          49.000  
C32  25004117.278   130203045.671          44.000    25004121.620   105800678.407          41.000  
C33  23487692.253   122306850.884          48.000    23487706.959    99386469.129          46.000  
> 2024  6 26 12 27  0.0000000  0 32                     
G10  20496358.769   107709164.633          50.000    20496362.075    83929269.099          47.000  
G12  21662548.657   113837706.031          45.000    21662550.997    88704831.086          43.000  
G15  24990043.885   131323755.848          34.000    24990049.800   102330313.822          33.000  
G18  25290728.901   132903687.953          33.000    25290736.227   103561347.515          34.000  
G23  20420266.840   107309348.600          46.000    20420268.824    83617741.816          49.000  
G24  23173146.289   121775940.604          40.000    23173152.133    94890479.101          40.000  
G25  20968097.330   110188337.222          46.000    20968102.226    85861186.026          44.000  
G28  22550403.924   118503371.998          43.000    22550406.854    92340396.735          43.000  
G32  22138095.982   116336627.277          47.000    22138099.752    90652012.050          44.000  
R 5  21881461.414   116969223.640          47.000                                                  
R 6  19956820.078   106493422.458          40.000                                                  
R 7  22570800.270   120823292.743          49.000                                                  
R 9  20369223.315   108770697.282          50.000                                                  
R15  23093692.394   123405974.023          43.000                                                  
R16  19522279.498   104284781.919          52.000    19522283.286    81108952.189          29.000  
R22  23666252.610   126332046.340          42.000                                                  
C 1  37067521.860   193020329.935          45.000    37067523.165   156844862.594          41.000  
C 2  37740836.492   196526391.843          41.000    37740836.188   159693893.924          39.000  
C 3  36779737.118   191521740.176          46.000    36779736.617   155627129.832          43.000  
C 4  38412391.042   200023376.359          42.000    38412390.792   162535485.984          37.000  
C 5  40178600.206   209220533.078          37.000    40178602.135   170008884.693          35.000  
C 6  36408129.235   189586802.003          45.000    36408126.144   154054838.329          44.000  
C 8  36021688.598   187574452.351          47.000    36021684.399   152419568.866          45.000  
C 9  37562469.244   195597729.023          44.000    37562467.458   158939188.730          43.000  
C13  35804694.635   186444521.425          49.000    35804697.494   151501416.009          46.000  
C14  25070689.752   130549784.025          37.000    25070687.679   106082446.268          38.000  
