     3.02           OBSERVATION DATA    M: Mixed            RINEX VERSION / TYPE
RTKCONV 2.4.3 b29   SINOGNSS            20250325 095440 UTC PGM / RUN BY / DATE 
log: D:\sinodata\AI\RTKlib-AI\data\k803\base2.24O           COMMENT             
format: RINEX                                               COMMENT             
rtkconv-2.4.3    FILE CONVERSION     20220401 131200 UTC    COMMENT             
0008                                                        MARKER NAME         
                                                            MARKER NUMBER       
                                                            MARKER TYPE         
                                                            OBSERVER / AGENCY   
09097550            SINOGNSS K803       609A7-1.001         REC # / TYPE / VERS 
                    NONE                                    ANT # / TYPE        
 -2831682.2116  4658825.8419  3299194.4493                  APPROX POSITION XYZ 
        0.0000        0.0000        0.0000                  ANTENNA: DELTA H/E/N
G    6 C1C L1C S1C C2X L2X S2X                              SYS / # / OBS TYPES 
R    6 C1C L1C S1C C2P L2P S2P                              SYS / # / OBS TYPES 
C    6 C1I L1I S1I C6I L6I S6I                              SYS / # / OBS TYPES 
  2024     6    26    12    49   44.0000000     GPS         TIME OF FIRST OBS   
  2024     6    26    12    52   31.0000000     GPS         TIME OF LAST OBS    
G                                                           SYS / PHASE SHIFT   
R                                                           SYS / PHASE SHIFT   
C                                                           SYS / PHASE SHIFT   
  3 R01  1 R09 -2 R17  4                                    GLONASS SLOT / FRQ #
 C1C    0.000 C1P    0.000 C2C    0.000 C2P    0.000        GLONASS COD/PHS/BIS 
                                                            END OF HEADER       
> 2024  6 26 12 49 44.0000000  0 31                     
G10  20310951.127   106734841.123          50.000    20310954.647    83170056.116          44.000  
G12  21711934.205   114097230.167          45.000    21711935.545    88907058.147          39.000  
G23  20932834.028   110002902.501          45.000    20932836.601    85716613.875          44.000  
G24  24004126.869   126142759.873          37.000    24004132.122    98293191.602          36.000  
G25  20531706.055   107895092.282          46.000    20531711.255    84074243.588          41.000  
G28  22019692.351   115714476.427          44.000    22019695.854    90167234.185          42.000  
G31  24456972.565   128522279.977          37.000    24456976.854   100147253.518          29.000  
G32  21715227.412   114114445.892          47.000    21715230.861    88920444.180          42.000  
R 5  22473583.868   120134456.600          45.000                                                  
R 6  19681393.284   105023697.749          40.000                                                  
R 7  21776543.499   116571586.416          51.000                                                  
R 9  19714677.162   105275464.756          52.000    19714677.859    81880838.909          25.000  
R10  22953938.872   122357475.585          39.000                                                  
R15  24144088.386   129018944.857          40.000                                                  
R16  19953484.896   106588205.185          52.000                                                  
C 1  37080693.868   193088922.656          45.000    37080695.101   156900600.253          34.000  
C 2  37748303.206   196565276.731          41.000    37748303.349   159725491.603          33.000  
C 3  36792761.116   191589560.457          46.000    36792760.455   155682239.691          37.000  
C 4  38424817.607   200088086.220          41.000    38424816.732   162588068.649          32.000  
C 5  40179332.067   209224347.798          37.000    40179334.211   170011979.437          29.000  
C 6  36435808.781   189730938.116          46.000    36435805.385   154171961.011          37.000  
C 8  36244042.947   188732308.632          46.000    36244038.980   153360421.648          39.000  
C 9  37574720.675   195661529.638          44.000    37574718.960   158991032.648          37.000  
C13  35953945.792   187221709.931          48.000    35953948.186   152132945.027          39.000  
C14  25749222.906   134083079.913          37.000    25749220.655   108953539.631          30.000  
C16  36888792.122   192089890.812          48.000    36888792.426   156088838.255          37.000  
C23  22408621.875   116687656.179          51.000    22408615.764    94818288.629          42.000  
C24  25855066.544   134634334.712          40.000    25855070.010   109403477.708          33.000  
C25  21963523.401   114370065.295          50.000    21963523.829    92936750.572          42.000  
C32  24308235.982   126579424.240          46.000    24308239.914   102856192.018          38.000  
C33  23994043.093   124943547.292          48.000    23994056.584   101529000.065          38.000  
> 2024  6 26 12 49 45.0000000  0 31                     
G10  20310896.626   106734554.897          50.000    20310899.199    83169833.074          44.000  
G12  21712057.679   114097879.428          45.000    21712059.323    88907564.051          40.000  
G23  20933280.450   110005247.595          45.000    20933283.952    85718441.220          44.000  
G24  24004734.737   126145954.739          37.000    24004740.420    98295681.086          36.000  
G25  20531466.253   107893832.019          46.000    20531471.953    84073261.583          41.000  
G28  22019344.406   115712649.081          43.000    22019347.711    90165810.275          42.000  
G31  24456392.662   128519233.060          37.000    24456397.397   100144879.315          29.000  
G32  21714927.570   114112870.562          47.000    21714931.733    88919216.648          42.000  
R 5  22474064.938   120137028.092          45.000                                                  
R 6  19681245.024   105022907.571          40.000                                                  
R 7  21775960.719   116568466.607          50.000                                                  
R 9  19714283.543   105273362.826          51.000    19714284.383    81879203.2701         25.000  
R10  22953156.513   122353304.142          39.000                                                  
R15  24144871.299   129023129.511          40.000                                                  
R16  19953892.882   106590384.431          52.000                                                  
C 1  37080702.123   193088964.973          45.000    37080703.195   156900634.639          34.000  
C 2  37748307.816   196565299.223          41.000    37748307.816   159725509.792          32.000  
C 3  36792769.425   191589602.657          46.000    36792768.728   155682273.973          36.000  
C 4  38424825.148   200088124.899          41.000    38424824.165   162588100.029          31.000  
C 5  40179331.227   209224344.233          36.000                                                  
C 6  36435830.813   189731052.898          45.000    36435827.525   154172054.266          38.000  
C 8  36244230.786   188733286.426          46.000    36244226.462   153361216.185          38.000  
C 9  37574733.827   195661597.432          44.000    37574731.933   158991087.739          35.000  
C13  35954079.399   187222405.883          48.000    35954081.900   152133510.550          39.000  
C14  25749743.699   134085791.439          37.000    25749741.233   108955742.916          31.000  
C16  36888829.772   192090086.924          47.000    36888830.183   156088997.600          37.000  
C23  22408315.028   116686058.300          50.000    22408308.881    94816990.215          42.000  
C24  25855652.951   134637387.960          39.000    25855656.222   109405958.715          32.000  
C25  21963789.792   114371451.785          50.000    21963790.221    92937877.197          41.000  
C32  24307732.826   126576805.061          46.000    24307736.454   102854063.718          37.000  
C33  23994453.169   124945683.129          47.000    23994466.804   101530735.589          38.000  
> 2024  6 26 12 49 46.0000000  0 31                     
G10  20310844.610   106734281.973          50.000    20310847.915    83169620.417          44.000  
G12  21712183.817   114098542.015          45.000    21712185.925    88908080.368          40.000  
G23  20933729.016   110007605.844          45.000    20933731.786    85720278.817          44.000  
G24  24005344.857   126149162.209          37.000    24005351.737    98298180.390          36.000  
G25  20531228.845   107892585.066          46.000    20531234.563    84072289.908          42.000  
G28  22018998.980   115710834.703          43.000    22019001.749    90164396.480          42.000  
G31  24455815.314   128516199.010          37.000    24455819.906   100142515.121          28.000  
G32  21714630.050   114111307.989          47.000    21714633.106    88917999.061          42.000  
R 5  22474548.474   120139612.814          45.000                                                  
R 6  19681099.570   105022130.708          40.000                                                  
R 7  21775380.029   116565359.714          50.000                                                  
R 9  19713892.426   105271274.494          51.000    19713891.425    81877567.678          25.000  
R10  22952376.548   122349145.764          39.000                                                  
R15  24145656.857   129027327.098          41.000                                                  
R16  19954303.297   106592577.183          52.000                                                  
C 1  37080712.487   193089019.802          45.000    37080713.667   156900679.244          35.000  
C 2  37748314.606   196565334.226          41.000    37748314.445   159725538.294          33.000  
C 3  36792779.682   191589657.379          46.000    36792779.396   155682318.425          37.000  
C 4  38424834.976   200088176.099          41.000    38424833.993   162588141.640          31.000  
C 5  40179332.853   209224353.233          36.000    40179335.319   170011985.7701         27.000  
C 6  36435855.419   189731180.217          45.000    36435851.720   154172157.736          38.000  
C 8  36244421.002   188734276.947          46.000    36244416.892   153362021.079          39.000  
C 9  37574749.337   195661677.794          44.000    37574747.390   158991153.042          36.000  
C13  35954215.561   187223114.568          48.000    35954217.884   152134086.415          39.000  
C14  25750266.797   134088515.634          36.000    25750264.331   108957956.610          30.000  
C16  36888869.870   192090295.568          47.000    36888870.085   156089167.150          37.000  
C23  22408010.719   116684473.375          50.000    22408004.625    94815702.341          42.000  
C24  25856242.004   134640453.775          39.000    25856244.952   109408449.943          33.000  
C25  21964058.631   114372851.173          49.000    21964058.899    92939014.321          42.000  
C32  24307232.351   126574198.488          46.000    24307235.996   102851945.697          38.000  
C33  23994866.051   124947831.804          47.000    23994879.310   101532481.579          37.000  
> 2024  6 26 12 49 47.0000000  0 31                     
G10  20310793.040   106734010.261          50.000    20310795.809    83169408.682          44.000  
G12  21712310.347   114099205.834          45.000    21712313.135    88908597.619          40.000  
G23  20934177.993   110009965.179          45.000    20934179.905    85722117.264          44.000  
G24  24005955.567   126152370.198          37.000    24005962.321    98300680.149          36.000  
G25  20530991.937   107891339.319          46.000    20530996.762    84071319.169          42.000  
G28  22018653.965   115709021.226          44.000    22018656.645    90162983.377          42.000  
G31  24455238.198   128513165.709          36.000    24455241.736   100140151.569          30.000  
G32  21714332.906   114109746.073          48.000    21714337.052    88916781.972          42.000  
R 5  22475032.331   120142198.462          45.000                                                  
R 6  19680954.099   105021354.854          40.000                                                  
R 7  21774799.983   116562253.440          51.000                                                  
R 9  19713501.613   105269187.423          52.000    19713501.648    81875938.584          25.000  
R10  22951596.690   122344988.228          39.000                                                  
R15  24146442.397   129031525.236          41.000                                                  
R16  19954714.035   106594771.151          52.000                                                  
C 1  37080722.958   193089075.186          45.000    37080724.227   156900724.198          34.000  
C 2  37748321.253   196565369.791          41.000    37748321.200   159725567.222          33.000  
C 3  36792790.510   191589712.647          46.000    36792789.921   155682363.356          37.000  
C 4  38424844.661   200088227.840          41.000    38424843.857   162588183.686          31.000  
C 5  40179335.105   209224362.765          37.000    40179337.071   170011993.548          29.000  
C 6  36435880.024   189731308.098          45.000    36435876.540   154172261.675          38.000  
C 8  36244611.253   188735268.235          46.000    36244607.126   153362826.567          38.000  
C 9  37574764.991   195661758.750          44.000    37574763.132   158991218.797          36.000  
C13  35954351.633   187223823.980          48.000    35954354.153   152134662.877          39.000  
C14  25750790.038   134091240.591          37.000    25750787.554   108960170.844          32.000  
C16  36888909.861   192090504.768          48.000    36888910.487   156089337.177          36.000  
C23  22407706.499   116682889.422          50.000    22407700.602    94814415.251          42.000  
C24  25856830.967   134643520.174          39.000    25856833.862   109410941.679          33.000  
C25  21964327.346   114374251.521          50.000    21964327.703    92940152.214          42.000  
C32  24306731.804   126571592.561          46.000    24306735.932   102849828.175          37.000  
C33  23995278.647   124949981.327          47.000    23995292.245   101534228.246          38.000  
> 2024  6 26 12 49 48.0000000  0 31                     
G10  20310739.039   106733726.417          50.000    20310741.452    83169187.508          44.000  
G12  21712434.216   114099857.551          45.000    21712434.895    88909105.450          40.000  
G23  20934624.594   110012312.259          45.000    20934626.738    85723946.135          44.000  
G24  24006563.114   126155565.398          37.000    24006566.348    98303169.918          36.000  
G25  20530752.385   107890081.442          46.000    20530757.210    84070339.044          42.000  
G28  22018306.358   115707195.268          43.000    22018310.218    90161560.557          42.000  
G31  24454658.652   128510119.793          36.000    24454661.851   100137778.075          29.000  
G32  21714033.297   114108171.463          47.000    21714037.692    88915555.008          42.000  
R 5  22475513.580   120144771.473          45.000                                                  
R 6  19680806.518   105020566.548          40.000                                                  
R 7  21774217.220   116559134.190          50.000                                                  
R 9  19713108.441   105267088.067          51.000    19713112.783    81874315.397          25.000  
R10  22950813.991   122340817.934          39.000                                                  
R15  24147225.668   129035710.419          40.000                                                  
R16  19955122.413   106596952.798          52.000                                                  
C 1  37080731.017   193089117.898          45.000    37080732.340   156900758.894          35.000  
C 2  37748325.453   196565392.675          41.000    37748325.453   159725585.784          32.000  
C 3  36792798.820   191589755.257          46.000    36792798.141   155682397.971          37.000  
C 4  38424852.416   200088266.918          41.000    38424851.522   162588215.379          32.000  
C 5  40179334.497   209224359.616          36.000    40179336.392   170011990.937          29.000  
C 6  36435902.128   189731423.327          45.000    36435898.697   154172355.292          37.000  
C 8  36244799.307   188736247.066          46.000    36244795.126   153363621.962          38.000  
C 9  37574778.089   195661827.053          44.000    37574775.712   158991274.299          36.000  
C13  35954485.347   187224520.947          48.000    35954487.938   152135229.217          39.000  
C14  25751311.134   134093953.039          36.000    25751308.525   108962374.904          31.000  
C16  36888947.779   192090701.301          47.000    36888947.958   156089496.881          36.000  
C23  22407399.866   116681293.224          50.000    22407394.023    94813118.219          42.000  
C24  25857417.232   134646573.924          39.000    25857420.341   109413423.080          32.000  
C25  21964594.059   114375639.581          50.000    21964594.327    92941280.131          42.000  
C32  24306228.898   126568974.046          46.000    24306233.222   102847700.405          38.000  
C33  23995689.241   124952118.475          47.000    23995702.804   101535964.851          37.000  
> 2024  6 26 12 49 49.0000000  0 31                     
G10  20310687.469   106733455.858          50.000    20310689.703    83168976.682          44.000  
G12  21712560.710   114100522.571          45.000    21712564.034    88909623.620          40.000  
G23  20935073.642   110014672.477          45.000    20935076.412    85725785.271          45.000  
G24  24007173.627   126158773.179          37.000    24007181.989    98305669.517          36.000  
G25  20530515.692   107888836.872          46.000    20530520.302    84069369.242          42.000  
G28  22017961.665   115705382.275          43.000    22017964.899    90160147.842          42.000  
G31  24454081.089   128507086.732          36.000    24454086.146   100135414.649          29.000  
G32  21713736.117   114106609.600          47.000    21713739.548    88914337.992          42.000  
R 5  22475997.366   120147357.727          45.000                                                  
R 6  19680661.190   105019791.528          40.000                                                  
R 7  21773636.781   116556027.874          50.000                                                  
R 9  19712717.806   105265002.267          51.000    19712722.166    81872692.461          24.000  
R10  22950034.187   122336660.746          39.000                                                  
R15  24148011.154   129039908.501          40.000                                                  
R16  19955533.365   106599147.960          52.000                                                  
C 1  37080741.775   193089173.123          44.000    37080742.972   156900803.797          35.000  
C 2  37748332.404   196565428.060          40.000    37748332.118   159725614.504          31.000  
C 3  36792809.273   191589810.365          45.000    36792808.701   155682442.769          37.000  
C 4  38424862.405   200088318.502          41.000    38424861.261   162588257.337          32.000  
C 5  40179336.374   209224368.993          36.000    40179338.035   170011998.555          28.000  
C 6  36435926.770   189731551.104          45.000    36435923.321   154172459.116          38.000  
C 8  36244989.737   188737238.576          46.000    36244985.359   153364427.645          38.000  
C 9  37574794.046   195661907.913          44.000    37574791.258   158991340.018          36.000  
C13  35954621.866   187225230.594          48.000    35954624.404   152135805.855          39.000  
C14  25751833.928   134096678.182          36.000    25751831.891   108964589.313          32.000  
C16  36888987.913   192090910.364          47.000    36888988.020   156089666.760          37.000  
C23  22407095.861   116679709.971          50.000    22407089.946    94811831.694          42.000  
C24  25858006.534   134649640.236          39.000    25858009.125   109415914.693          32.000  
C25  21964863.274   114377040.548          49.000    21964863.274    92942418.534          42.000  
C32  24305728.690   126566368.147          45.000    24305732.586   102845582.899          38.000  
C33  23996102.016   124954268.450          47.000    23996115.578   101537711.889          38.000  
> 2024  6 26 12 49 50.0000000  0 31                     
G10  20310636.257   106733186.567          50.000    20310638.973    83168766.872          44.000  
G12  21712687.509   114101188.861          45.000    21712688.921    88910142.871          40.000  
G23  20935523.406   110017033.842          45.000    20935525.032    85727625.282          45.000  
G24  24007784.640   126161981.578          37.000    24007792.234    98308169.518          36.000  
G25  20530279.053   107887593.555          46.000    20530283.109    84068400.426          42.000  
G28  22017616.775   115703570.227          43.000    22017620.795    90158735.870          42.000  
G31  24453504.599   128504054.475          37.000    24453507.351   100133051.893          29.000  
G32  21713439.187   114105048.444          48.000    21713442.154    88913121.470          43.000  
R 5  22476481.616   120149944.974          45.000                                                  
R 6  19680516.379   105019017.617          40.000                                                  
R 7  21773056.770   116552922.225          51.000                                                  
R 9  19712327.457   105262917.802          52.000    19712334.229    81871074.402          24.000  
R10  22949254.508   122332504.427          39.000                                                  
R15  24148796.927   129044107.287          41.000                                                  
R16  19955944.621   106601344.444          52.000                                                  
C 1  37080752.657   193089228.967          44.000    37080753.854   156900849.179          35.000  
C 2  37748339.408   196565464.082          41.000    37748339.051   159725643.820          34.000  
C 3  36792819.923   191589866.087          46.000    36792819.512   155682488.029          37.000  
C 4  38424872.554   200088370.682          41.000    38424871.178   162588299.861          29.000  
C 5  40179337.374   209224378.978          36.000    40179339.876   170012006.839          30.000  
C 6  36435951.429   189731679.496          46.000    36435947.819   154172563.441          38.000  
C 8  36245180.275   188738230.902          46.000    36245176.111   153365233.975          39.000  
C 9  37574809.342   195661989.391          44.000    37574807.108   158991406.221          37.000  
C13  35954758.189   187225941.050          48.000    35954760.905   152136383.165          39.000  
C14  25752357.151   134099404.090          37.000    25752355.471   108966804.389          32.000  
C16  36889028.404   192091120.035          48.000    36889028.494   156089837.115          37.000  
C23  22406791.873   116678127.742          50.000    22406786.083    94810546.004          42.000  
C24  25858595.318   134652707.211          40.000    25858598.124   109418406.935          33.000  
C25  21965132.363   114378442.498          50.000    21965132.542    92943557.736          42.000  
C32  24305228.322   126563762.935          46.000    24305231.878   102843465.958          38.000  
C33  23996514.933   124956419.334          47.000    23996528.496   101539459.640          38.000  
> 2024  6 26 12 49 51.0000000  0 31                     
G10  20310582.024   106732901.649          50.000    20310585.330    83168544.820          47.000  
G12  21712811.556   114101839.572          45.000    21712813.914    88910649.868          43.000  
G23  20935969.631   110019379.423          45.000    20935972.150    85729452.998          47.000  
G24  24008391.633   126165173.654          37.000    24008401.068    98310656.836          38.000  
G25  20530039.554   107886334.606          46.000    20530045.022    84067419.395          44.000  
G28  22017269.044   115701742.209          43.000    22017272.421    90157311.420          45.000  
G31  24452924.088   128501006.165          36.000    24452926.500   100130676.572          31.000  
G32  21713139.023   114103471.116          47.000    21713143.473    88911892.384          45.000  
R 5  22476962.579   120152516.007          45.000                                                  
R 6  19680368.281   105018227.601          40.000                                                  
R 7  21772473.579   116549800.006          50.000                                                  
R 9  19711934.178   105260817.515          51.000    19711940.360    81869450.825          25.000  
R10  22948471.988   122328331.796          39.000                                                  
R15  24149579.804   129048289.566          41.000                                                  
R16  19956352.874   106603525.040          52.000                                                  
C 1  37080760.251   193089268.652          44.000    37080761.627   156900881.436          37.000  
C 2  37748343.054   196565483.933          40.000    37748343.232   159725659.943          36.000  
C 3  36792827.249   191589905.656          45.000    36792827.446   155682520.187          40.000  
C 4  38424879.380   200088406.729          41.000    38424878.040   162588329.074          34.000  
C 5  40179336.517   209224372.814          36.000    40179338.804   170012001.676          32.000  
C 6  36435973.068   189731791.751          46.000    36435969.620   154172654.683          41.000  
C 8  36245367.703   188739207.297          46.000    36245363.861   153366027.388          41.000  
C 9  37574821.796   195662054.775          44.000    37574819.991   158991459.351          39.000  
C13  35954891.689   187226635.568          48.000    35954894.530   152136947.525          42.000  
C14  25752877.586   134102114.075          37.000    25752875.924   108969006.405          35.000  
C16  36889065.447   192091313.579          48.000    36889065.965   156089994.393          40.000  
C23  22406485.008   116676529.791          50.000    22406479.540    94809247.533          45.000  
C24  25859180.797   134655758.074          39.000    25859184.335   109420885.961          35.000  
C25  21965398.594   114379828.705          49.000    21965399.076    92944684.140          45.000  
C32  24304724.952   126561141.672          46.000    24304728.990   102841335.976          41.000  
C33  23996925.009   124958554.374          47.000    23996938.983   101541194.544          40.000  
> 2024  6 26 12 49 52.0000000  0 31                     
G10  20310529.043   106732623.669          50.000    20310532.420    83168328.207          47.000  
G12  21712936.621   114102497.229          45.000    21712939.730    88911162.326          42.000  
G23  20936417.250   110021731.815          45.000    20936420.180    85731286.047          47.000  
G24  24009000.144   126168371.944          37.000    24009009.794    98313149.045          38.000  
G25  20529801.307   107885082.597          46.000    20529806.471    84066443.794          44.000  
G28  22016921.974   115699920.814          43.000    22016925.351    90155892.133          45.000  
G31  24452345.132   128497964.315          36.000    24452348.777   100128306.279          31.000  
G32  21712839.950   114101900.165          47.000    21712844.345    88910668.277          45.000  
R 5  22477444.828   120155093.816          45.000                                                  
R 6  19680221.504   105017444.435          40.000                                                  
R 7  21771891.156   116546684.194          50.000                                                  
R 9  19711542.167   105258724.353          51.000    19711546.688    81867824.521          26.000  
R10  22947690.146   122324165.860          39.000                                                  
R15  24150363.540   129052478.282          40.000                                                  
R16  19956762.307   106605712.682          52.000                                                  
C 1  37080769.043   193089314.569          45.000    37080770.633   156900918.721          37.000  
C 2  37748348.128   196565510.004          41.000    37748348.379   159725681.119          35.000  
C 3  36792836.112   191589951.439          46.000    36792836.237   155682557.396          40.000  
C 4  38424887.439   200088448.991          42.000    38424886.224   162588363.401          33.000  
C 5  40179336.231   209224372.895          36.000    40179338.983   170012001.721          31.000  
C 6  36435995.780   189731910.257          46.000    36435992.474   154172750.974          41.000  
C 8  36245556.239   188740190.098          46.000    36245552.665   153366826.001          41.000  
C 9  37574835.323   195662126.411          44.000    37574833.876   158991517.571          39.000  
C13  35955026.278   187227336.507          48.000    35955029.227   152137517.098          42.000  
C14  25753398.915   134104830.402          37.000    25753397.539   108971213.669          35.000  
C16  36889103.794   192091513.363          48.000    36889104.312   156090156.736          40.000  
C23  22406179.448   116674938.504          50.000    22406173.908    94807954.489          45.000  
C24  25859767.919   134658815.207          39.000    25859771.315   109423370.113          35.000  
C25  21965666.129   114381221.511          50.000    21965666.611    92945815.916          45.000  
C32  24304222.921   126558526.722          46.000    24304226.942   102839211.122          41.000  
C33  23997336.336   124960695.948          48.000    23997350.381   101542934.755          41.000  
> 2024  6 26 12 49 53.0000000  0 31                     
G10  20310479.188   106732361.338          50.000    20310482.101    83168123.791          47.000  
G12  21713064.813   114103170.558          45.000    21713066.922    88911687.033          42.000  
G23  20936867.656   110024099.733          45.000    20936870.319    85733131.177          47.000  
G24  24009611.837   126171585.265          37.000    24009619.395    98315652.942          38.000  
G25  20529565.954   107883846.255          46.000    20529570.671    84065480.427          44.000  
G28  22016578.352   115698114.732          43.000    22016582.391    90154484.812          45.000  
G31  24451769.302   128494937.667          37.000    24451771.876   100125947.870          31.000  
G32  21712543.985   114100344.309          48.000    21712548.202    88909455.908          45.000  
R 5  22477930.133   120157687.257          45.000                                                  
R 6  19680077.766   105016676.972          40.000                                                  
R 7  21771312.039   116543583.701          51.000                                                  
R 9  19711153.176   105256647.119          52.000    19711155.410    81866204.537          27.000  
R10  22946911.504   122320015.352          39.000                                                  
R15  24151150.188   129056682.275          40.000                                                  
R16  19957174.814   106607916.229          52.000                                                  
C 1  37080780.926   193089375.335          45.000    37080782.587   156900968.089          38.000  
C 2  37748355.901   196565550.980          41.000    37748356.009   159725714.420          36.000  
C 3  36792847.691   191590012.101          46.000    36792847.673   155682606.682          39.000  
C 4  38424898.268   200088506.105          42.000    38424897.249   162588409.837          34.000  
C 5  40179339.197   209224387.844          37.000    40179341.824   170012013.894          31.000  
C 6  36436021.297   189732043.631          46.000    36436018.331   154172859.353          41.000  
C 8  36245748.009   188741187.946          46.000    36245744.257   153367636.832          41.000  
C 9  37574852.102   195662212.961          44.000    37574850.440   158991587.904          39.000  
C13  35955163.834   187228052.508          48.000    35955166.764   152138098.910          42.000  
C14  25753923.514   134107561.788          36.000    25753922.102   108973433.165          35.000  
C16  36889145.000   192091727.986          48.000    36889145.768   156090331.132          40.000  
C23  22405876.800   116673362.483          50.000    22405871.368    94806673.845          45.000  
C24  25860357.776   134661887.241          39.000    25860361.403   109425866.444          35.000  
C25  21965936.469   114382629.576          50.000    21965937.005    92946960.082          45.000  
C32  24303723.500   126555926.720          46.000    24303727.628   102837098.401          41.000  
C33  23997750.487   124962852.677          48.000    23997764.710   101544687.281          40.000  
> 2024  6 26 12 49 54.0000000  0 31                     
G10  20310427.046   106732087.199          50.000    20310429.673    83167910.183          46.000  
G12  21713190.593   114103832.106          45.000    21713193.184    88912202.492          42.000  
G23  20937315.990   110026455.702          45.000    20937318.885    85734966.993          47.000  
G24  24010220.795   126174786.094          37.000    24010227.460    98318147.072          38.000  
G25  20529328.707   107882598.088          46.000    20529333.585    84064507.845          44.000  
G28  22016232.533   115696296.521          43.000    22016235.214    90153068.004          45.000  
G31  24451191.722   128491898.755          37.000    24451194.277   100123579.873          30.000  
G32  21712245.394   114098776.099          48.000    21712249.396    88908233.944          45.000  
R 5  22478412.954   120160268.394          45.000                                                  
R 6  19679931.365   105015897.310          40.000                                                  
R 7  21770730.706   116540470.540          51.000                                                  
R 9  19710761.934   105254557.937          52.000    19710764.043    81864580.975          26.000  
R10  22946131.020   122315852.520          39.000                                                  
R15  24151934.388   129060873.661          40.000                                                  
R16  19957585.265   106610107.773          52.000                                                  
C 1  37080790.235   193089423.747          45.000    37080791.826   156901007.449          38.000  
C 2  37748361.298   196565579.590          41.000    37748361.548   159725737.675          36.000  
C 3  36792857.019   191590060.404          46.000    36792857.055   155682645.935          39.000  
C 4  38424906.809   200088550.876          42.000    38424905.934   162588446.175          35.000  
C 5  40179340.019   209224390.397          36.000    40179342.324   170012016.023          28.000  
C 6  36436044.419   189732164.664          46.000    36436041.542   154172957.698          40.000  
C 8  36245937.331   188742173.658          46.000    36245933.686   153368437.803          41.000  
C 9  37574866.290   195662287.179          44.000    37574864.896   158991648.212          39.000  
C13  35955298.924   187228756.337          48.000    35955301.944   152138670.821          42.000  
C14  25754445.825   134110280.997          37.000    25754444.271   108975642.719          34.000  
C16  36889183.793   192091930.271          48.000    36889184.544   156090495.510          39.000  
C23  22405571.758   116671774.544          50.000    22405566.469    94805383.512          45.000  
C24  25860945.256   134664946.961          39.000    25860949.169   109428352.706          35.000  
C25  21966204.469   114384025.678          50.000    21966205.041    92948094.534          44.000  
C32  24303221.809   126553314.454          46.000    24303225.991   102834975.723          41.000  
C33  23998162.225   124964997.368          48.000    23998176.573   101546430.011          41.000  
> 2024  6 26 12 49 55.0000000  0 31                     
G10  20310373.350   106731805.240          50.000    20310376.191    83167690.479          46.000  
G12  21713315.158   114104485.851          45.000    21713318.518    88912711.911          42.000  
G23  20937762.609   110028803.710          45.000    20937765.986    85736796.611          46.000  
G24  24010828.592   126177978.410          37.000    24010835.061    98320634.561          38.000  
G25  20529089.548   107881342.111          46.000    20529094.640    84063529.167          44.000  
G28  22015885.195   115694470.162          43.000    22015888.322    90151644.894          44.000  
G31  24450611.086   128488851.568          37.000    24450614.195   100121205.419          30.000  
G32  21711945.408   114097199.505          47.000    21711949.608    88907005.432          45.000  
R 5  22478894.167   120162841.265          45.000                                                  
R 6  19679783.946   105015109.534          40.000                                                  
R 7  21770147.336   116537348.820          50.000                                                  
R 9  19710369.227   105252460.853          51.000    19710368.029    81862948.8191         26.000  
R10  22945347.946   122311681.327          39.000                                                  
R15  24152716.962   129065056.486          40.000                                                  
R16  19957993.948   106612291.374          52.000                                                  
C 1  37080797.705   193089463.760          45.000    37080799.706   156901039.959          38.000  
C 2  37748365.318   196565599.782          41.000    37748365.569   159725754.096          36.000  
C 3  36792865.132   191590100.311          46.000    36792864.792   155682678.355          39.000  
C 4  38424913.975   200088587.226          41.000    38424912.867   162588475.738          34.000  
C 5  40179338.393   209224384.564          37.000    40179341.091   170012011.217          31.000  
C 6  36436066.077   189732277.331          46.000    36436063.289   154173049.249          41.000  
C 8  36246125.010   188743151.172          46.000    36246121.472   153369232.128          41.000  
C 9  37574878.941   195662353.046          44.000    37574877.244   158991701.716          40.000  
C13  35955432.602   187229451.969          48.000    35955435.264   152139236.063          42.000  
C14  25754966.493   134112991.976          37.000    25754964.938   108977845.590          35.000  
C16  36889221.086   192092124.178          48.000    36889221.711   156090653.057          40.000  
C23  22405265.411   116670178.631          50.000    22405259.997    94804086.706          45.000  
C24  25861531.538   134667998.330          39.000    25861535.094   109430832.191          35.000  
C25  21966471.218   114385413.776          50.000    21966471.682    92949222.465          45.000  
C32  24302718.457   126550693.880          46.000    24302722.638   102832846.297          41.000  
C33  23998572.533   124967133.955          48.000    23998586.775   101548166.156          41.000  
> 2024  6 26 12 49 56.0000000  0 31                     
G10  20310322.781   106731539.203          50.000    20310326.462    83167483.164          46.000  
G12  21713442.368   114105155.534          45.000    21713445.084    88913233.728          42.000  
G23  20938212.479   110031167.513          45.000    20938215.267    85738638.537          46.000  
G24  24011438.891   126181185.965          37.000    24011446.128    98323133.957          38.000  
G25  20528853.444   107880102.060          46.000    20528859.055    84062562.891          44.000  
G28  22015540.412   115692659.387          43.000    22015544.218    90150233.922          44.000  
G31  24450034.149   128485819.860          37.000    24450037.437   100118843.042          31.000  
G32  21711648.443   114095638.284          47.000    21711652.410    88905788.901          45.000  
R 5  22479378.364   120165430.032          45.000                                                  
R 6  19679639.135   105014337.712          40.000                                                  
R 7  21769566.718   116534242.657          50.000                                                  
R 9  19709979.628   105250380.002          51.000    19709977.323    81861324.290          27.000  
R10  22944568.499   122307525.878          39.000                                                  
R15  24153502.770   129069254.861          41.000                                                  
R16  19958405.703   106614491.171          52.000                                                  
C 1  37080808.229   193089518.898          45.000    37080810.195   156901084.772          38.000  
C 2  37748372.234   196565635.117          41.000    37748372.323   159725782.783          36.000  
C 3  36792875.603   191590155.314          46.000    36792875.263   155682723.069          39.000  
C 4  38424923.785   200088638.702          41.000    38424922.856   162588517.598          34.000  
C 5  40179340.198   209224393.863          36.000    40179343.003   170012018.792          31.000  
C 6  36436090.557   189732405.122          46.000    36436087.805   154173153.078          41.000  
C 8  36246315.601   188744144.025          46.000    36246312.045   153370038.895          41.000  
C 9  37574894.720   195662434.048          44.000    37574892.772   158991767.546          39.000  
C13  35955568.925   187230162.902          48.000    35955571.659   152139813.770          42.000  
C14  25755490.198   134115718.259          37.000    25755488.429   108980060.914          35.000  
C16  36889261.291   192092333.198          48.000    36889261.917   156090822.921          40.000  
C23  22404961.960   116668598.260          50.000    22404956.456    94802802.516          45.000  
C24  25862120.269   134671064.846          39.000    25862124.272   109433324.002          35.000  
C25  21966740.825   114386817.363          50.000    21966741.290    92950362.999          45.000  
C32  24302218.267   126548088.511          46.000    24302222.306   102830729.235          41.000  
C33  23998985.862   124969285.974          48.000    23999000.067   101549914.845          41.000  
> 2024  6 26 12 49 57.0000000  0 31                     
G10  20310273.837   106731282.151          50.000    20310276.607    83167282.868          46.000  
G12  21713571.436   114105834.225          45.000    21713573.866    88913762.580          42.000  
G23  20938664.315   110033540.168          45.000    20938666.424    85740487.365          46.000  
G24  24012051.173   126184401.789          37.000    24012057.784    98325639.807          38.000  
G25  20528619.163   107878870.995          46.000    20528624.506    84061603.608          44.000  
G28  22015197.685   115690857.263          44.000    22015201.240    90148829.660          44.000  
G31  24449459.481   128482796.688          37.000    24449461.822   100116487.367          31.000  
G32  21711352.979   114094085.491          48.000    21711357.821    88904578.914          44.000  
R 5  22479864.294   120168027.617          45.000                                                  
R 6  19679496.522   105013574.832          40.000                                                  
R 7  21768988.315   116531145.031          51.000                                                  
R 9  19709591.656   105248308.333          52.000    19709585.598    81859701.045          26.000  
R10  22943790.804   122303379.147          39.000                                                  
R15  24154290.293   129073461.764          41.000                                                  
R16  19958819.336   106616700.093          52.000                                                  
C 1  37080820.309   193089582.267          45.000    37080822.292   156901136.248          38.000  
C 2  37748380.471   196565678.696          41.000    37748380.704   159725818.209          36.000  
C 3  36792887.557   191590218.579          46.000    36792887.396   155682774.446          40.000  
C 4  38424934.828   200088698.443          42.000    38424934.578   162588566.113          32.000  
C 5  40179343.986   209224411.441          36.000    40179346.362   170012033.073          32.000  
C 6  36436116.592   189732541.174          46.000    36436113.858   154173263.636          41.000  
C 8  36246508.086   188745145.319          46.000    36246504.333   153370852.519          41.000  
C 9  37574912.088   195662523.354          45.000    37574910.105   158991840.112          39.000  
C13  35955707.124   187230882.293          48.000    35955709.965   152140398.330          42.000  
C14  25756015.547   134118452.946          36.000    25756013.582   108982283.125          34.000  
C16  36889303.033   192092550.493          48.000    36889303.712   156090999.491          39.000  
C23  22404660.116   116667026.565          50.000    22404654.559    94801525.386          45.000  
C24  25862710.679   134674139.657          39.000    25862714.575   109435822.536          35.000  
C25  21967011.881   114388229.598          50.000    21967012.488    92951510.556          45.000  
C32  24301719.418   126545491.496          46.000    24301723.563   102828618.914          41.000  
C33  23999400.566   124971446.538          48.000    23999415.004   101551670.488          41.000  
> 2024  6 26 12 49 58.0000000  0 31                     
G10  20310222.124   106731010.116          50.000    20310225.234    83167070.893          46.000  
G12  21713697.806   114106497.941          45.000    21713699.378    88914279.776          42.000  
G23  20939113.006   110035897.703          45.000    20939115.365    85742324.399          46.000  
G24  24012660.435   126187601.986          37.000    24012668.083    98328133.465          38.000  
G25  20528382.202   107877624.934          46.000    20528387.813    84060632.656          44.000  
G28  22014851.687   115689039.842          44.000    22014855.010    90147413.478          44.000  
G31  24448881.114   128479758.047          37.000    24448883.598   100114119.599          31.000  
G32  21711054.530   114092517.155          48.000    21711059.069    88903356.873          45.000  
R 5  22480347.436   120170609.667          45.000                                                  
R 6  19679350.568   105012796.535          40.000                                                  
R 7  21768407.000   116528031.508          51.000                                                  
R 9  19709200.860   105246221.486          52.000    19709198.144    81858077.157          26.000  
R10  22943010.124   122299216.800          39.000                                                  
R15  24155074.761   129077652.804          41.000                                                  
R16  19959230.002   106618893.797          52.000                                                  
C 1  37080829.619   193089630.137          45.000    37080831.531   156901175.180          38.000  
C 2  37748385.868   196565706.773          41.000    37748385.921   159725841.007          36.000  
C 3  36792896.867   191590266.356          46.000    36792896.724   155682813.292          39.000  
C 4  38424943.923   200088742.684          41.000    38424943.191   162588602.070          35.000  
C 5  40179344.522   209224413.494          36.000    40179346.738   170012034.776          31.000  
C 6  36436139.733   189732661.753          46.000    36436136.963   154173361.640          41.000  
C 8  36246697.444   188746131.283          46.000    36246693.656   153371653.703          41.000  
C 9  37574926.366   195662597.174          44.000    37574924.204   158991900.106          40.000  
C13  35955842.231   187231586.395          48.000    35955845.198   152140970.466          42.000  
C14  25756537.716   134121172.329          37.000    25756535.929   108984492.783          34.000  
C16  36889341.809   192092752.283          48.000    36889342.149   156091163.451          40.000  
C23  22404355.324   116665439.786          50.000    22404349.910    94800236.009          45.000  
C24  25863298.124   134677199.014          39.000    25863302.180   109438308.530          35.000  
C25  21967280.095   114389626.718          50.000    21967280.720    92952645.835          45.000  
C32  24301217.727   126542879.052          46.000    24301222.123   102826496.125          41.000  
C33  23999812.608   124973591.903          48.000    23999827.046   101553413.771          41.000  
> 2024  6 26 12 49 59.0000000  0 31                     
G10  20310168.624   106730729.779          50.000    20310172.127    83166852.453          46.000  
G12  21713822.656   114107153.391          45.000    21713825.015    88914790.509          42.000  
G23  20939559.821   110038246.797          45.000    20939562.377    85744154.852          46.000  
G24  24013267.249   126190793.182          37.000    24013274.879    98330620.074          38.000  
G25  20528143.526   107876370.592          46.000    20528148.815    84059655.247          44.000  
G28  22014504.170   115687213.778          43.000    22014507.636    90145990.583          44.000  
G31  24448300.711   128476710.651          37.000    24448303.069   100111744.960          30.000  
G32  21710754.224   114090939.986          48.000    21710758.637    88902127.903          45.000  
R 5  22480828.953   120173182.998          45.000                                                  
R 6  19679203.024   105012009.632          41.000                                                  
R 7  21767823.434   116524908.919          50.000                                                  
R 9  19708808.457   105244126.286          51.000    19708807.671    81856447.7871         26.000  
R10  22942227.568   122295045.619          39.000                                                  
R15  24155857.567   129081834.826          40.000                                                  
R16  19959639.023   106621079.077          52.000                                                  
C 1  37080837.481   193089669.148          44.000    37080838.750   156901206.858          38.000  
C 2  37748389.728   196565725.985          41.000    37748389.728   159725856.618          35.000  
C 3  36792904.247   191590305.248          45.000    36792904.283   155682844.909          40.000  
C 4  38424950.999   200088778.011          41.000    38424949.945   162588630.745          34.000  
C 5  40179343.432   209224406.675          37.000    40179345.326   170012029.200          31.000  
C 6  36436161.426   189732773.467          46.000    36436158.459   154173452.410          41.000  
C 8  36246884.997   188747108.573          46.000    36246881.388   153372447.843          41.000  
C 9  37574938.624   195662662.159          44.000    37574936.801   158991952.910          40.000  
C13  35955975.927   187232281.795          48.000    35955978.858   152141535.547          42.000  
C14  25757058.616   134123883.012          36.000    25757056.525   108986695.489          34.000  
C16  36889378.727   192092945.202          48.000    36889379.209   156091320.232          40.000  
C23  22404049.049   116663844.573          50.000    22404043.635    94798939.773          45.000  
C24  25863883.799   134680249.520          40.000    25863888.052   109440787.288          35.000  
C25  21967546.754   114391015.362          50.000    21967547.505    92953774.229          45.000  
C32  24300714.357   126540257.841          46.000    24300718.610   102824366.177          41.000  
C33  24000223.148   124975728.703          48.000    24000237.176   101555150.088          41.000  
> 2024  6 26 12 50  0.0000000  0 31                     
G10  20310118.412   106730465.831          50.000    20310121.540    83166646.768          46.000  
G12  21713950.456   114107825.254          45.000    21713953.172    88915314.047          42.000  
G23  20940009.853   110040612.141          45.000    20940012.801    85745997.985          46.000  
G24  24013877.351   126194000.123          37.000    24013883.766    98333118.990          38.000  
G25  20527908.012   107875132.640          46.000    20527912.962    84058690.617          44.000  
G28  22014159.476   115685403.787          44.000    22014163.497    90144580.203          44.000  
G31  24447723.899   128473679.234          37.000    24447726.454   100109382.855          30.000  
G32  21710457.097   114089378.645          48.000    21710460.618    88900911.265          44.000  
R 5  22481313.382   120175772.726          45.000                                                  
R 6  19679058.624   105011239.172          40.000                                                  
R 7  21767242.976   116521802.403          50.000                                                  
R 9  19708419.234   105242047.791          51.000    19708416.482    81854819.900          26.000  
R10  22941448.032   122290890.655          39.000                                                  
R15  24156643.179   129086032.884          40.000                                                  
R16  19960051.172   106623281.040          52.000                                                  
C 1  37080847.863   193089723.747          44.000    37080849.292   156901251.210          38.000  
C 2  37748396.482   196565760.767          41.000    37748396.482   159725884.922          36.000  
C 3  36792914.754   191590359.730          46.000    36792914.718   155682889.181          39.000  
C 4  38424960.631   200088828.952          41.000    38424959.845   162588672.177          34.000  
C 5  40179345.540   209224415.445          36.000    40179347.006   170012036.374          32.000  
C 6  36436185.871   189732900.804          46.000    36436182.886   154173555.863          41.000  
C 8  36247075.767   188748101.685          46.000    36247071.997   153373254.811          41.000  
C 9  37574953.973   195662742.763          44.000    37574952.294   158992018.414          39.000  
C13  35956112.536   187232992.983          48.000    35956115.288   152142113.429          42.000  
C14  25757582.125   134126609.455          36.000    25757580.106   108988910.935          34.000  
C16  36889418.843   192093153.730          48.000    36889419.379   156091489.681          40.000  
C23  22403745.740   116662265.374          50.000    22403740.415    94797656.533          45.000  
C24  25864472.958   134683315.683          39.000    25864476.550   109443278.792          35.000  
C25  21967816.666   114392419.990          50.000    21967817.220    92954915.600          45.000  
C32  24300214.113   126537652.306          45.000    24300218.134   102822248.952          41.000  
C33  24000636.513   124977881.390          47.000    24000650.665   101556899.325          41.000  
> 2024  6 26 12 50  1.0000000  0 31                     
G10  20310068.612   106730203.330          50.000    20310071.167    83166442.240          46.000  
G12  21714078.666   114108498.575          45.000    21714081.722    88915838.725          42.000  
G23  20940460.223   110042978.806          45.000    20940463.154    85747842.137          46.000  
G24  24014487.829   126197207.757          37.000    24014493.493    98335618.447          38.000  
G25  20527672.713   107873896.122          46.000    20527677.805    84057727.122          44.000  
G28  22013815.462   115683594.905          44.000    22013819.268    90143170.691          44.000  
G31  24447147.533   128470648.788          37.000    24447149.874   100107021.494          30.000  
G32  21710160.239   114087818.184          48.000    21710163.277    88899695.315          44.000  
R 5  22481798.151   120178363.642          45.000                                                  
R 6  19678914.511   105010469.981          40.000                                                  
R 7  21766662.983   116518696.744          51.000                                                  
R 9  19708030.225   105239970.793          52.000    19708027.509    81853195.402          25.000  
R10  22940668.817   122286736.744          40.000                                                  
R15  24157428.719   129090231.799          40.000                                                  
R16  19960463.715   106625484.452          52.000                                                  
C 1  37080858.424   193089779.105          45.000    37080859.710   156901296.224          38.000  
C 2  37748403.219   196565796.335          41.000    37748403.362   159725913.812          36.000  
C 3  36792925.243   191590414.975          46.000    36792925.368   155682934.081          40.000  
C 4  38424970.101   200088880.647          41.000    38424969.905   162588714.214          34.000  
C 5  40179347.274   209224424.997          37.000    40179348.936   170012044.114          32.000  
C 6  36436210.298   189733028.909          46.000    36436207.403   154173659.998          41.000  
C 8  36247266.662   188749095.745          46.000    36247263.016   153374062.580          42.000  
C 9  37574969.466   195662824.183          44.000    37574967.858   158992084.577          40.000  
C13  35956249.198   187233705.155          48.000    35956252.022   152142692.136          42.000  
C14  25758105.348   134129336.851          36.000    25758103.793   108991127.166          34.000  
C16  36889458.851   192093363.023          48.000    36889459.709   156091659.751          40.000  
C23  22403442.664   116660687.367          50.000    22403437.267    94796374.280          45.000  
C24  25865062.118   134686382.635          39.000    25865065.727   109445770.961          36.000  
C25  21968086.577   114393825.779          50.000    21968087.238    92956057.914          45.000  
C32  24299713.727   126535047.629          46.000    24299717.998   102820132.457          41.000  
C33  24001050.055   124980035.156          48.000    24001064.261   101558649.444          41.000  
> 2024  6 26 12 50  2.0000000  0 31                     
G10  20310016.398   106729928.443          50.000    20310019.132    83166228.017          46.000  
G12  21714204.249   114109159.524          45.000    21714206.412    88916353.711          42.000  
G23  20940908.325   110045332.935          45.000    20940910.844    85749676.521          46.000  
G24  24015095.501   126200402.362          37.000    24015101.790    98338107.733          38.000  
G25  20527435.055   107872647.232          46.000    20527438.986    84056753.927          44.000  
G28  22013468.964   115681773.293          44.000    22013472.520    90141751.254          44.000  
G31  24446567.826   128467605.477          37.000    24446571.275   100104650.065          30.000  
G32  21709860.790   114086244.789          48.000    21709864.203    88898469.315          44.000  
R 5  22482280.525   120180941.651          45.000                                                  
R 6  19678767.967   105009688.028          40.000                                                  
R 7  21766080.203   116515577.835          50.000                                                  
